{
"type": "FeatureCollection",
"name": "food_back_locations",
"crs": { "type": "name", "properties": { "name": "urn:ogc:def:crs:OGC:1.3:CRS84" } },
"features": [
{ "type": "Feature", "properties": { "name": "Kent", "address": "515 W Harrison Street, Ste. #107 Kent, WA 98032", "y": 47.38238, "x": -122.2387 }, "geometry": { "type": "Point", "coordinates": [ -122.2387, 47.38238 ] } },
{ "type": "Feature", "properties": { "name": "Federal Way", "address": "1200 S. 336th St. Federal Way, WA 98003", "y": 47.30126, "x": -122.31815 }, "geometry": { "type": "Point", "coordinates": [ -122.31815, 47.30126 ] } },
{ "type": "Feature", "properties": { "name": "Auburn", "address": "930 18th Pl NE Auburn, WA 98002", "y": 47.3237, "x": -122.21828 }, "geometry": { "type": "Point", "coordinates": [ -122.21828, 47.3237 ] } },
{ "type": "Feature", "properties": { "name": "Tukwila", "address": "3118 S. 140th Street Tukwila, WA 98168", "y": 47.47826, "x": -122.29288 }, "geometry": { "type": "Point", "coordinates": [ -122.29288, 47.47826 ] } },
{ "type": "Feature", "properties": { "name": "Highline", "address": "18300 4th Ave S, Burien, WA 98148", "y": 47.43842, "x": -122.32762 }, "geometry": { "type": "Point", "coordinates": [ -122.32762, 47.43842 ] } },
{ "type": "Feature", "properties": { "name": "Des Moines", "address": "22225 9th Avenue South Des Moines, Washington 98198", "y": 47.40227, "x": -122.32251 }, "geometry": { "type": "Point", "coordinates": [ -122.32251, 47.40227 ] } },
{ "type": "Feature", "properties": { "name": "Maple Valley", "address": "21415 Renton Maple Valley Rd SE Maple Valley, WA 98038", "y": 47.4095, "x": -122.03952 }, "geometry": { "type": "Point", "coordinates": [ -122.03952, 47.4095 ] } },
{ "type": "Feature", "properties": { "name": "White Center", "address": "10829 8th Ave SW Seattle, WA  98146", "y": 47.50577, "x": -122.3455 }, "geometry": { "type": "Point", "coordinates": [ -122.3455, 47.50577 ] } }
]
}
